[{"name":"University of Windsor","type":"Academic","website":"https://www.uwindsor.ca/","address":"N9B 3P4, Canada","latitude":42.3054,"longitude":-83.0663},{"name":"Alberta Health Services","type":"Health System","website":"https://www.albertahealthservices.ca/","address":"T5J 3E4, Canada","latitude":53.5397,"longitude":-113.505},{"name":"Alberta Innovates","type":"Government","website":"https://albertainnovates.ca/","address":"T5J 0H8, Canada","latitude":53.5447,"longitude":-113.4941},{"name":"Canada Border Services","type":"Government","website":"https://www.cbsa-asfc.gc.ca/menu-eng.html","address":"K1A 0L8, Canada","latitude":45.4205,"longitude":-75.6956},{"name":"Canada Health Infoway","type":"Government","website":"https://www.infoway-inforoute.ca/en/","address":"M5H 1J9, Canada","latitude":43.648,"longitude":-79.3844},{"name":"Canadian Blood Services","type":"Government","website":"https://www.blood.ca/en","address":"K1G 4J5, Canada","latitude":45.4012,"longitude":-75.6638},{"name":"Canadian Society of Physician Leaders","type":"Health System","website":"https://physicianleaders.ca/","address":"K1S 5P1, Canada","latitude":45.3962,"longitude":-75.7097},{"name":"Canadian Association for Pharmacy Distribution Management","type":"Industry","website":"https://www.capdm.ca/","address":"L6M 3H5, Canada","latitude":43.4368,"longitude":-79.7403},{"name":"Canadian Council for Aboriginal Business","type":"Industry","website":"https://www.ccib.ca/","address":"M5A 4J5, Canada","latitude":43.6503,"longitude":-79.3639},{"name":"Canadian College of Health Leaders","type":"Health System","website":"https://cchl-ccls.ca/","address":"K1S 1V7, Canada","latitude":45.4091,"longitude":-75.6893},{"name":"College of Family Physicians of Canada","type":"Health System","website":"https://www.cfpc.ca/en/home","address":"L4W 5A4, Canada","latitude":43.6585,"longitude":-79.597},{"name":"Canadian Institute for Health Information","type":"Government","website":"https://www.cihi.ca/en","address":"K1R 1A4, Canada","latitude":45.4184,"longitude":-75.7031},{"name":"Canadian Medical Association","type":"Health System","website":"https://www.cma.ca/","address":"K1J 9B9, Canada","latitude":45.4352,"longitude":-75.6048},{"name":"Fasken","type":"Industry","website":"https://www.fasken.com/en","address":"M5H 2T6, Canada","latitude":43.6503,"longitude":-79.3802},{"name":"GS1 Canada","type":"Industry","website":"https://gs1ca.org/","address":"M3B 3K4, Canada","latitude":43.7548,"longitude":-79.3478},{"name":"Health Canada","type":"Government","website":"https://www.canada.ca/en/health-canada.html","address":"K1A 0K9, Canada","latitude":45.4058,"longitude":-75.7405},{"name":"HealthcareCAN","type":"Health System","website":"https://www.healthcarecan.ca/","address":"K2P 1L4, Canada","latitude":45.4205,"longitude":-75.6931},{"name":"HealthPRO","type":"GPO","website":"https://www.healthprocanada.com/","address":"L6H 6K8, Canada","latitude":43.4633,"longitude":-79.6842},{"name":"HIMSS","type":"Industry","website":"https://www.himss.org/","address":"60607, USA","latitude":41.8734,"longitude":-87.6507},{"name":"Imagine Citizens Network","type":"Citizens","website":"https://imaginecitizens.ca/","address":"T1S, Canada","latitude":50.7282,"longitude":-113.9678},{"name":"Mackenzie Health","type":"Health System","website":"https://www.mackenziehealth.ca/","address":"L4C 4Z3, Canada","latitude":43.8695,"longitude":-79.4503},{"name":"McKesson Canada","type":"Industry","website":"https://www.mckesson.ca/","address":"H4R 2P7 , Canada","latitude":45.4954,"longitude":-73.7352},{"name":"Mohawk Medbuy","type":"GPO","website":"https://www.mohawkmedbuy.ca/","address":"L7L 0A1, Canada","latitude":43.3892,"longitude":-79.7715},{"name":"MSSS - Direction du génie biomédical, de la logistique et de l'approvisionnement","type":"Government","website":"https://msss.gouv.qc.ca/en/","address":"G1R 4Z1, Canada","latitude":46.8059,"longitude":-71.2199},{"name":"National Collaborating Centre for Determinants of Health","type":"Health System","website":"https://nccdh.ca/","address":"B2G 2W5, Canada","latitude":45.6167,"longitude":-61.9952},{"name":"NGen Manufacturing Inc.","type":"Industry","website":"https://www.ngen.ca/","address":"L8P 0A1, Canada","latitude":43.2573,"longitude":-79.9004},{"name":"NL Health Services","type":"Health System","website":"https://nlhealthservices.ca/","address":"A1N 3J5, Canada","latitude":47.5238,"longitude":-52.782},{"name":"Nova Scotia Health Authority","type":"Health System","website":"https://www.nshealth.ca/","address":"B3S 0H6, Canada","latitude":44.6425,"longitude":-63.6569},{"name":"Ontario Health","type":"Health System","website":"https://www.ontariohealth.ca/","address":"M5G 2L3, Canada","latitude":43.6564,"longitude":-79.3883},{"name":"Canadian Support Workers Association","type":"Health System","website":"https://canadianswassociation.com/","address":"N3C 0A0, Canada","latitude":43.4222,"longitude":-80.3046},{"name":"Public Health Agency of Canada","type":"Government","website":"https://www.canada.ca/en/public-health.html","address":"K1A 0K9, Canada","latitude":45.4058,"longitude":-75.7405},{"name":"Provincial Health Services Authority","type":"Health System","website":"https://www.phsa.ca/","address":"V6H 4C1, Canada","latitude":49.264,"longitude":-123.1344},{"name":"Providence Care","type":"Health System","website":"https://providencecare.ca/","address":"K7L 4X3, Canada","latitude":44.2303,"longitude":-76.4842},{"name":"Public Services and Procurement Canada","type":"Government","website":"https://www.canada.ca/en/public-services-procurement.html","address":"K1A 0S5, Canada","latitude":45.4184,"longitude":-75.6978},{"name":"Royal College of Physicians and Surgeons of Canada","type":"Health System","website":"https://www.royalcollege.ca/en.html","address":"K1S 5N8 , Canada","latitude":45.3957,"longitude":-75.6824},{"name":"Shared Health","type":"Health System","website":"https://sharedhealthmb.ca/","address":"R3C 3H8, Canada","latitude":49.8889,"longitude":-97.1437},{"name":"Shoppers Drug Mart","type":"Industry","website":"https://www.shoppersdrugmart.ca/","address":"M2J 4W8, Canada","latitude":43.7692,"longitude":-79.3321},{"name":"St. Joseph's Healthcare","type":"Health System","website":"https://www.sjhc.london.on.ca/","address":"N6A 4V2, Canada","latitude":42.9874,"longitude":-81.2503},{"name":"Winnipeg Regional Health Authority","type":"Health System","website":"https://wrha.mb.ca/","address":"R3B 1E2, Canada","latitude":49.9034,"longitude":-97.1356},{"name":"3 West Management Group","type":"Industry","website":"","address":"L9G 4V5, Canada","latitude":43.1901,"longitude":-80.0283},{"name":"AdvantAge Ontario","type":"Industry","website":"https://www.advantageontario.ca/","address":"L4K 3P3, Canada","latitude":43.7961,"longitude":-79.4955},{"name":"Beth Israel Lahey Health","type":"Health System","website":"https://bilh.org/","address":"02215, USA","latitude":42.3476,"longitude":-71.1003},{"name":"Blackfoot Confederacy","type":"Citizens","website":"https://blackfootconfederacy.ca/","address":"T0L 1Y0, Canada","latitude":49.3329,"longitude":-113.0493},{"name":"Canadian Armed Forces","type":"Government","website":"https://forces.ca/en/","address":"K1A 0K2, Canada","latitude":45.4227,"longitude":-75.6883},{"name":"Canadian Association of PPE Manufacturers","type":"Industry","website":"https://cappem.ca/","address":"N2V 1N3, Canada","latitude":43.5081,"longitude":-80.5338},{"name":"Canadian Generics Pharmaceutical Association","type":"Industry","website":"https://canadiangenerics.ca/","address":"M2P 2B5, Canada","latitude":43.7455,"longitude":-79.4081},{"name":"Canadian Hospital Specialties","type":"Industry","website":"https://www.chsltd.com/","address":"L6H 6X7, Canada","latitude":43.5078,"longitude":-79.6695},{"name":"Canadian Pharmaceutical Distribution Network","type":"Industry","website":"https://www.cpdn.ca/","address":"L5N 7Y2, Canada","latitude":43.6027,"longitude":-79.7389},{"name":"Capstone 406, LLC","type":"Industry","website":"","address":"85248, USA","latitude":33.2344,"longitude":-111.8634},{"name":"College of Pharmacists of British Columbia","type":"Health System","website":"https://www.bcpharmacists.org/","address":"V6J 5C6, Canada","latitude":49.2648,"longitude":-123.1446},{"name":"Department of National Defence","type":"Government","website":"https://www.canada.ca/en/department-national-defence.html","address":"K1A 0K2, Canada","latitude":45.4227,"longitude":-75.6883},{"name":"DF Barnes","type":"Industry","website":"https://dfbarnes.com/","address":"A1A 5N8, Canada","latitude":47.6024,"longitude":-52.6925},{"name":"Edmonton O-day'min Primary Care Network","type":"Health System","website":"https://eopcn.ca/","address":"T5G 0E5, Canada","latitude":53.5597,"longitude":-113.528},{"name":"E∑ Consulting","type":"Health System","website":"","address":"M5V, Canada","latitude":43.6289,"longitude":-79.3944},{"name":"Government of Alberta","type":"Government","website":"https://www.alberta.ca/","address":"T5K 2B6, Canada","latitude":53.5336,"longitude":-113.5072},{"name":"Health Emergency Readiness Canada ","type":"Government","website":"https://ised-isde.canada.ca/site/ised/en/programs-and-initiatives/health-emergency-readiness-canada","address":"K1A 0H5, Canada","latitude":45.4203,"longitude":-75.7017},{"name":"Healthcare Materials Management Services","type":"GPO","website":"https://www.lhsc.on.ca/about-lhsc/healthcare-materials-management-services","address":"N5V 3A1, Canada","latitude":43.0259,"longitude":-81.1889},{"name":"HEC Montréal","type":"Academic","website":"https://www.hec.ca/","address":"H3T 2A7, Canada","latitude":45.5031,"longitude":-73.6211},{"name":"Horizon Health Network","type":"Health System","website":"https://horizonnb.ca/","address":"E3B 4R3, Canada","latitude":45.9328,"longitude":-66.6351},{"name":"Immunization Policy and Knowledge Translation","type":"Academic","website":"","address":"K0M, Canada","latitude":44.8856,"longitude":-78.6662},{"name":"Institute of Health Economics","type":"Academic","website":"https://ihe.ca/","address":"T5J 4P6, Canada","latitude":53.5416,"longitude":-113.4966},{"name":"Johnson & Johnson MedTech","type":"Industry","website":"https://www.jnjmedtech.com/en-CA","address":"L3R 0T5, Canada","latitude":43.8584,"longitude":-79.3441},{"name":"MedTech Canada","type":"Industry","website":"https://medtechcanada.org/","address":"L4W 5K4, Canada","latitude":43.6571,"longitude":-79.6037},{"name":"Ministry of Public and Business Service Delivery","type":"Government","website":"https://www.ontario.ca/page/ministry-public-and-business-service-delivery-and-procurement","address":"M7A 2J3, Canada","latitude":43.661,"longitude":-79.3841},{"name":"National Research Council Canada","type":"Government","website":"https://nrc.canada.ca/en/","address":"K1A 0R6, Canada","latitude":45.446,"longitude":-75.6193},{"name":"Nurse and Nurse Practitioners of British Columbia","type":"Health System","website":"https://www.nnpbc.com/","address":"V5S 4R5, Canada","latitude":49.22,"longitude":-123.0383},{"name":"Office of the Information and Privacy Commissioner for B.C.","type":"Government","website":"https://www.oipc.bc.ca/","address":"V8W 9A4  , Canada","latitude":48.4284,"longitude":-123.3655},{"name":"Perry Kendall Consulting","type":"Health System","website":"https://www.drperrykendall.com/","address":"V8P, Canada","latitude":48.4599,"longitude":-123.3423},{"name":"PolyUnity","type":"Industry","website":"https://www.polyunity.com/","address":"A1C 6K3, Canada","latitude":47.5594,"longitude":-52.7136},{"name":"Queensway Carleton Hospital","type":"Health System","website":"https://www.qch.on.ca/","address":"K2H 8P4, Canada","latitude":45.3342,"longitude":-75.8088},{"name":"Richards Packaging Inc.","type":"Industry","website":"https://richardspackaging.com/","address":"L5R 4E6, Canada","latitude":43.618,"longitude":-79.6944},{"name":"Roche","type":"Industry","website":"https://www.roche.com/","address":"L5N 5M8, Canada","latitude":43.6067,"longitude":-79.7533},{"name":"Royal Military College","type":"Academic","website":"https://www.rmc-cmr.ca/en","address":"K7K 7B4, Canada","latitude":44.2466,"longitude":-76.4584},{"name":"Stratifi","type":"Industry","website":"https://www.stratifi.ca/","address":"L6L, Canada","latitude":43.3955,"longitude":-79.7288},{"name":"Stryker","type":"Industry","website":"https://www.stryker.com/ca/en/index.html","address":"N6E 1R6, Canada","latitude":42.9314,"longitude":-81.2061},{"name":"Supply Ontario","type":"Government","website":"https://www.supplyontario.ca/","address":"M5V 3L1, Canada","latitude":43.6451,"longitude":-79.3855},{"name":"The Canadian Coalition for Green Health Care","type":"Health System","website":"https://greenhealthcare.ca/","address":"L8S 4R5, Canada","latitude":43.2622,"longitude":-79.9045},{"name":"Translate Health","type":"Health System","website":"","address":"B2R, Canada","latitude":44.76,"longitude":-63.5927},{"name":"Treasury Board Secretariat","type":"Government","website":"https://www.canada.ca/en/treasury-board-secretariat.html","address":"M7A 1W3, Canada","latitude":43.6635,"longitude":-79.3905},{"name":"Unity Health Toronto","type":"Health System","website":"https://unityhealth.to/","address":"M6R 1B5, Canada","latitude":43.638,"longitude":-79.4503},{"name":"University of Manitoba","type":"Academic","website":"https://umanitoba.ca/","address":"R3T 2N2, Canada","latitude":49.8107,"longitude":-97.1331},{"name":"University of New Brunswick","type":"Academic","website":"https://www.unb.ca/","address":"E3B 5A3, Canada","latitude":45.944,"longitude":-66.6429},{"name":"University of Toronto","type":"Academic","website":"https://www.utoronto.ca/","address":"M5S 1A1, Canada","latitude":43.6608,"longitude":-79.3961},{"name":"University of Victoria","type":"Academic","website":"https://www.uvic.ca/","address":"V8P 5C2, Canada","latitude":48.4664,"longitude":-123.3108},{"name":"York University","type":"Academic","website":"https://www.yorku.ca/","address":"M3J 1P3, Canada","latitude":43.7738,"longitude":-79.5048},{"name":"Yukon Hospital Corporation","type":"Health System","website":"https://yukonhospitals.ca/en","address":"Y1A 3H7, Canada","latitude":60.7171,"longitude":-135.0391}]
